{
"type": "FeatureCollection",
                                                                                
"features": [

{ "type": "Feature", "id": 1, "properties": { "id": 1, "iddpto": "01" , "name": "AMAZONAS" , "lat": -78.05, "lon": -5.07, "2014": 25, "2015": 37, "2016": 36, "2017": 11, "2018": 8, "2019": 42, "2020": 30}, "geometry": { "type": "Point", "coordinates": [-78.05, -5.07] } },
{ "type": "Feature", "id": 2, "properties": { "id": 2, "iddpto": "02" , "name": "ANCASH" , "lat": -77.67, "lon": -9.41, "2014": 24, "2015": 28, "2016": 32, "2017": 15, "2018": 10, "2019": 45, "2020": 29}, "geometry": { "type": "Point", "coordinates": [-77.67, -9.41] } },
{ "type": "Feature", "id": 3, "properties": { "id": 3, "iddpto": "03" , "name": "APURIMAC" , "lat": -72.98, "lon": -14.03, "2014": 18, "2015": 35, "2016": 25, "2017": 15, "2018": 14, "2019": 6, "2020": 25}, "geometry": { "type": "Point", "coordinates": [-72.98, -14.03] } },
{ "type": "Feature", "id": 4, "properties": { "id": 4, "iddpto": "04" , "name": "AREQUIPA" , "lat": -72.48, "lon": -15.84, "2014": 25, "2015": 36, "2016": 31, "2017": 18, "2018": 17, "2019": 43, "2020": 29}, "geometry": { "type": "Point", "coordinates": [-72.48, -15.84] } },
{ "type": "Feature", "id": 5, "properties": { "id": 5, "iddpto": "05" , "name": "AYACUCHO" , "lat": -74.08, "lon": -14.09, "2014": 19, "2015": 22, "2016": 26, "2017": 12, "2018": 14, "2019": 41, "2020": 31}, "geometry": { "type": "Point", "coordinates": [-74.08, -14.09] } },
{ "type": "Feature", "id": 6, "properties": { "id": 6, "iddpto": "06" , "name": "CAJAMARCA" , "lat": -78.75, "lon": -6.43, "2014": 18, "2015": 26, "2016": 33, "2017": 15, "2018": 12, "2019": 22, "2020": 27}, "geometry": { "type": "Point", "coordinates": [-78.75, -6.43] } },
{ "type": "Feature", "id": 7, "properties": { "id": 7, "iddpto": "07" , "name": "CALLAO" , "lat": -77.13, "lon": -11.94, "2014": 15, "2015": 25, "2016": 44, "2017": 15, "2018": 13, "2019": 39, "2020": 31}, "geometry": { "type": "Point", "coordinates": [-77.13, -11.94] } },
{ "type": "Feature", "id": 8, "properties": { "id": 8, "iddpto": "08" , "name": "CUSCO" , "lat": -72.17, "lon": -13.19, "2014": 19, "2015": 28, "2016": 38, "2017": 16, "2018": 15, "2019": 10, "2020": 26}, "geometry": { "type": "Point", "coordinates": [-72.17, -13.19] } },
{ "type": "Feature", "id": 9, "properties": { "id": 9, "iddpto": "09" , "name": "HUANCAVELICA" , "lat": -75.00, "lon": -13.02, "2014": 25, "2015": 24, "2016": 38, "2017": 11, "2018": 16, "2019": 30, "2020": 25}, "geometry": { "type": "Point", "coordinates": [-75.00, -13.02] } },
{ "type": "Feature", "id": 10, "properties": { "id": 10, "iddpto": "10" , "name": "HUANUCO" , "lat": -76.03, "lon": -9.42, "2014": 18, "2015": 38, "2016": 36, "2017": 14, "2018": 8, "2019": 25, "2020": 31}, "geometry": { "type": "Point", "coordinates": [-76.03, -9.42] } },
{ "type": "Feature", "id": 11, "properties": { "id": 11, "iddpto": "11" , "name": "ICA" , "lat": -75.57, "lon": -14.23, "2014": 19, "2015": 26, "2016": 32, "2017": 16, "2018": 13, "2019": 22, "2020": 27}, "geometry": { "type": "Point", "coordinates": [-75.57, -14.23] } },
{ "type": "Feature", "id": 12, "properties": { "id": 12, "iddpto": "12" , "name": "JUNIN" , "lat": -74.88, "lon": -11.54, "2014": 19, "2015": 28, "2016": 27, "2017": 13, "2018": 16, "2019": 16, "2020": 30}, "geometry": { "type": "Point", "coordinates": [-74.88, -11.54] } },
{ "type": "Feature", "id": 13, "properties": { "id": 13, "iddpto": "13" , "name": "LA LIBERTAD" , "lat": -78.37, "lon": -7.92, "2014": 19, "2015": 24, "2016": 34, "2017": 11, "2018": 11, "2019": 25, "2020": 28}, "geometry": { "type": "Point", "coordinates": [-78.37, -7.92] } },
{ "type": "Feature", "id": 14, "properties": { "id": 14, "iddpto": "14" , "name": "LAMBAYEQUE" , "lat": -79.83, "lon": -6.34, "2014": 27, "2015": 38, "2016": 38, "2017": 12, "2018": 9, "2019": 12, "2020": 28}, "geometry": { "type": "Point", "coordinates": [-79.83, -6.34] } },
{ "type": "Feature", "id": 15, "properties": { "id": 15, "iddpto": "15" , "name": "LIMA" , "lat": -76.63, "lon": -11.79, "2014": 22, "2015": 25, "2016": 41, "2017": 17, "2018": 17, "2019": 44, "2020": 29}, "geometry": { "type": "Point", "coordinates": [-76.63, -11.79] } },
{ "type": "Feature", "id": 16, "properties": { "id": 16, "iddpto": "16" , "name": "LORETO" , "lat": -74.43, "lon": -4.12, "2014": 24, "2015": 29, "2016": 41, "2017": 11, "2018": 14, "2019": 43, "2020": 31}, "geometry": { "type": "Point", "coordinates": [-74.43, -4.12] } },
{ "type": "Feature", "id": 17, "properties": { "id": 17, "iddpto": "17" , "name": "MADRE DE DIOS" , "lat": -70.53, "lon": -11.98, "2014": 19, "2015": 31, "2016": 30, "2017": 18, "2018": 8, "2019": 7, "2020": 30}, "geometry": { "type": "Point", "coordinates": [-70.53, -11.98] } },
{ "type": "Feature", "id": 18, "properties": { "id": 18, "iddpto": "18" , "name": "MOQUEGUA" , "lat": -70.84, "lon": -16.86, "2014": 24, "2015": 28, "2016": 31, "2017": 11, "2018": 12, "2019": 49, "2020": 26}, "geometry": { "type": "Point", "coordinates": [-70.84, -16.86] } },
{ "type": "Feature", "id": 19, "properties": { "id": 19, "iddpto": "19" , "name": "PASCO" , "lat": -75.30, "lon": -10.40, "2014": 18, "2015": 30, "2016": 39, "2017": 10, "2018": 17, "2019": 24, "2020": 32}, "geometry": { "type": "Point", "coordinates": [-75.30, -10.40] } },
{ "type": "Feature", "id": 20, "properties": { "id": 20, "iddpto": "20" , "name": "PIURA" , "lat": -80.34, "lon": -5.13, "2014": 27, "2015": 31, "2016": 35, "2017": 12, "2018": 9, "2019": 5, "2020": 30}, "geometry": { "type": "Point", "coordinates": [-80.34, -5.13] } },
{ "type": "Feature", "id": 21, "properties": { "id": 21, "iddpto": "21" , "name": "PUNO" , "lat": -69.95, "lon": -14.93, "2014": 23, "2015": 29, "2016": 39, "2017": 10, "2018": 17, "2019": 11, "2020": 29}, "geometry": { "type": "Point", "coordinates": [-69.95, -14.93] } },
{ "type": "Feature", "id": 22, "properties": { "id": 22, "iddpto": "22" , "name": "SAN MARTIN" , "lat": -76.72, "lon": -7.03, "2014": 22, "2015": 33, "2016": 40, "2017": 16, "2018": 8, "2019": 33, "2020": 30}, "geometry": { "type": "Point", "coordinates": [-76.72, -7.03] } },
{ "type": "Feature", "id": 23, "properties": { "id": 23, "iddpto": "23" , "name": "TACNA" , "lat": -70.28, "lon": -17.64, "2014": 20, "2015": 34, "2016": 35, "2017": 13, "2018": 13, "2019": 12, "2020": 31}, "geometry": { "type": "Point", "coordinates": [-70.28, -17.64] } },
{ "type": "Feature", "id": 24, "properties": { "id": 24, "iddpto": "24" , "name": "TUMBES" , "lat": -80.54, "lon": -3.86, "2014": 17, "2015": 24, "2016": 49, "2017": 17, "2018": 13, "2019": 41, "2020": 27}, "geometry": { "type": "Point", "coordinates": [-80.54, -3.86] } },
{ "type": "Feature", "id": 25, "properties": { "id": 25, "iddpto": "25" , "name": "UCAYALI" , "lat": -73.43, "lon": -9.62, "2014": 18, "2015": 24, "2016": 46, "2017": 18, "2018": 16, "2019": 30, "2020": 26}, "geometry": { "type": "Point", "coordinates": [-73.43, -9.62] } }


]
}